{
    "routes": [
      {
        "id": 101,
        "title": "Lumières",
        "description": "Les bâtiments où la lumière joue un rôle important",
        "projects" : [3, 12, 15, 31, 62]
      },
      {
        "id": 101,
        "title": "Dans l'espace",
        "description": "Quand l'architecture échappe à la gravité...",
        "projects" : [25, 65, 51, 67, 73, 74, 79, 77, 83, 86, 87]
      },
      {
        "id": 102,
        "title": "Expositions universelles",
        "description": "Les expositions universelles sont souvent l'occasion de construire sphérique",
        "projects" : [23, 28, 29, 30, 31, 32, 33, 34, 35, 37, 38, 39, 40, 41, 44, 47, 49, 59, 61, 63, 70, 71, 82]
      },
      {
        "id": 103,
        "title": "Oeuvres d'art globales",
        "description": "Où l'architecture rejoint la musique, l'opéra, la danse, la science...",
        "projects" : [41, 45, 47, 57, 63, 71, 82]
      },
      {
        "id": 104,
        "title": "En relief",
        "description": "Les projets où l'architecte s'est attaché à reconstituer le relief de la terre",
        "projects" : [23, 24, 40, 49, 56, 68, 90]
      },
      {
        "id": 105,
        "title": "Planétariums",
        "description": "Tous les planétatiums, ou les projets qui comportent un planétarium",
        "projects" : [8, 12, 15, 16, 18, 27, 35, 41, 48, 49, 55, 61]
      },
      {
        "id": 106,
        "title": "Les plus belles spirales",
        "description": "La spirale, une forme récurrente dans les architectures sphériques",
        "projects" : [29, 31, 32, 34, 36, 40, 41, 42, 44, 61, 63, 76]
      },
      {
        "id": 107,
        "title": "Pas si rond",
        "description": "Les projets où la sphère... n'est pas sphérique",
        "projects" : [38, 51, 76, 87]
      },
      {
        "id": 108,
        "title": "J'habite dans une sphère",
        "description": "Les projets de globes habitables",
        "projects" : [2, 13, 20, 53, 59, 69]
      },
      {
        "id": 109,
        "title": "Latin seconde langue",
        "description": "Des noms originaux dérivés du latin et du grec",
        "projects" : [8, 10, 24, 62, 61, 80, 87]
      },
      {
        "id": 110,
        "title": "Globes & politique",
        "description": "Globes animés par un projet politique marqué",
        "projects" : [66, 57, 58, 70, 68, 72]
      },
      {
        "id": 111,
        "title": "Vu sous cet angle",
        "description": "Projets où le choix de l'inclinaison de l'axe polaire n'est pas laissé au hasard",
        "projects" : [31, 32, 40, 56, 90]
      },
      {
        "id": 112,
        "title": "A deux c'est mieux",
        "description": "Un globe peut en cacher un autre",
        "projects" : [9, 36, 43]
      },
      {
        "id": 113,
        "title": "Le génie du lieu",
        "description": "Globes pensés pour une certaine latitude ou longitude",
        "projects" : [28, 88, 90]
      },
      {
        "id": 114,
        "title": "Soleil et héliocentrisme",
        "description": "Le soleil occupe une place souvent centrale dans les architectures sphériques",
        "projects" : [64, 81, 76, 27, 31, 19, 15]
      },
      {
        "id": 115,
        "title": "Géodésiques",
        "description": "Où il est question d'icosaèdres et de triangulation",
        "projects" : [55, 70, 71, 90, 87]
      }
    ],

    "projects": [
      {
        "id" : 1,
        "name" : "Ornithon",
        "author_sort_key": "varro",
        "author" : "Marcus Terentius Varro ",
        "localization" : "Casinum",
        "country_code" : "IT",
        "date" : "-50",
        "date_desc" : "1er s. av. JC",
        "diam_desc" : "",
        "diameter" : 10.9,
        "description": "",
        "subtitle": "",
        "audio_file": "",
        "images": [""],
        "coordinates": [
          6.08, 5.17
        ]
      },
      {
        "id" : 2,
        "name" : "Cenatio Rotunda",
        "author_sort_key": "severus",
        "author" : "Severus, Celer",
        "localization" : "Rome",
        "country_code" : "IT",
        "date" : "66",
        "date_desc" : "64-68",
        "diam_desc" : "",
        "diameter" : 16,
        "description": "",
        "subtitle": "",
        "audio_file": "",
        "images": [""],
        "coordinates": [
          3.59, 2.48
        ]
      },
      {
        "id" : 3,
        "name" : "Pantheon",
        "author_sort_key": "apollodore",
        "author" : "Apollodore de Damas",
        "localization" : "Rome",
        "country_code" : "IT",
        "date" : "125",
        "date_desc" : "v. 125",
        "diam_desc" : "",
        "diameter" : 43.3,
        "description": "",
        "subtitle": "",
        "audio_file": "",
        "images": [""],
        "coordinates": [
          2.41, 6.11
        ]
      },
      {
        "id" : 3,
        "name" : "Marine theatre in the villa Adriana",
        "author_sort_key": "?",
        "author" : "Architecte inconnu",
        "localization" : "Tivoli",
        "country_code" : "IT",
        "date" : "119",
        "date_desc" : "v. 118-121",
        "diam_desc" : "",
        "diameter" : 44,
        "description": "",
        "subtitle": "",
        "audio_file": "",
        "images": [""],
        "coordinates": [
          2.41, 6.11
        ]
      },
      {
        "id" : 4,
        "name" : "Throne of Chosroes II",
        "author_sort_key": "chosroes",
        "author" : "Chosroès (Khosro II)",
        "localization" : "Ctésiphon, Irak",
        "country_code" : "IQ",
        "date" : "604",
        "date_desc" : "590 - 628",
        "diam_desc" : "?",
        "diameter" : -1,
        "description": "",
        "subtitle": "",
        "audio_file": "",
        "images": [""],
        "coordinates": [
          4.29, 9.49
        ]
      },
      {
        "id" : 6,
        "name" : "Qasr Amra",
        "author_sort_key": "al-walid",
        "author" : "Al-Walīd Ier ou Al-Walīd II",
        "localization" : "Azraq, Jordanie",
        "country_code" : "JO",
        "date" : "720",
        "date_desc" : "VIIIè s.",
        "diam_desc" : "",
        "diameter" : 2.6,
        "description": "",
        "subtitle": "",
        "audio_file": "",
        "images": [""],
        "coordinates": [
          4.42, 11.95
        ]
      },
      {
        "id" : 5,
        "name" : "Cielo de Salamanca",
        "author_sort_key": "gallego",
        "author" : "Fernando Gallego",
        "localization" : "Salamanque",
        "country_code" : "ES",
        "date" : "1475",
        "date_desc" : "XVème s.",
        "diam_desc" : "~8.5m",
        "diameter" : 8.5,
        "description": "",
        "subtitle": "",
        "audio_file": "",
        "images": [""],
        "coordinates": [
          4.89, 10.32
        ]
      },
      {
        "id" : 5,
        "name" : "Sagrestia Vecchia",
        "author_sort_key": "brunelleschi",
        "author" : "Filippo Brunelleschi, Giuliano d’Arrigo",
        "localization" : "Florence",
        "country_code" : "IT",
        "date" : "1442",
        "date_desc" : "XVème s.",
        "diam_desc" : "~4m",
        "diameter" : 4,
        "description": "",
        "subtitle": "",
        "audio_file": "",
        "images": [""],
        "coordinates": [
          4.89, 10.32
        ]
      },
      {
        "id" : 7,
        "name" : "Gottorf globe",
        "author_sort_key": "olearius",
        "author" : "Adam Olearius, Andreas Bösch",
        "localization" : "Schleswig, St-Petersburg",
        "country_code" : "DE, RU",
        "date" : "1650",
        "date_desc" : "1650-1664",
        "diam_desc" : "",
        "diameter" : 3,
        "description": "",
        "subtitle": "",
        "audio_file": "",
        "images": [""],
        "coordinates": [
          3.35, 11.55
        ]
      },
      {
        "id" : 8,
        "name" : "Urania",
        "author_sort_key": "weigel",
        "author" : "Ehrard Weigel",
        "localization" : "Iéna",
        "country_code" : "DE",
        "date" : "1661",
        "date_desc" : "",
        "diam_desc" : "",
        "diameter" : 5.4,
        "description": "",
        "subtitle": "",
        "audio_file": "",
        "images": [""],
        "coordinates": [
          3.59, 12.96
        ]
      },
      {
        "id" : 8,
        "name" : "Pancosmos",
        "author_sort_key": "weigel",
        "author" : "Ehrard Weigel",
        "localization" : "Copenhague",
        "country_code" : "DK",
        "date" : "1696",
        "date_desc" : "",
        "diam_desc" : "",
        "diameter" : 9.5,
        "description": "",
        "subtitle": "",
        "audio_file": "",
        "images": [""],
        "coordinates": [
          3.59, 12.96
        ]
      },
      {
        "id" : 9,
        "name" : "Celestial globe and terrestrial globe",
        "author_sort_key": "coronelli",
        "author" : "Vincenzo Coronelli",
        "localization" : "Marly et Paris",
        "country_code" : "FR",
        "date" : "1682",
        "date_desc" : "1681-1683",
        "diam_desc" : "",
        "diameter" : 3.86,
        "description": "",
        "subtitle": "",
        "audio_file": "",
        "images": [""],
        "coordinates": [
          4.98, 17.69
        ]
      },
      {
        "id" : 11,
        "name" : "Spherical temple",
        "author_sort_key": "beaumesnil ",
        "author" : "Pierre de la Ruelle dit de Beaumesnil ",
        "localization" : "Limoges",
        "country_code" : "FR",
        "date" : "1747",
        "date_desc" : "",
        "diam_desc" : "",
        "diameter" : 14,
        "description": "",
        "subtitle": "",
        "audio_file": "",
        "images": [""],
        "coordinates": [
          3.27, 18.09
        ]
      },
      {
        "id" : 10,
        "name" : "Uranium",
        "author_sort_key": "long",
        "author" : "Roger Long, Jonathan Munns",
        "localization" : "Cambridge",
        "country_code" : "GB",
        "date" : "1758",
        "date_desc" : "",
        "diam_desc" : "",
        "diameter" : 5.5,
        "description": "",
        "subtitle": "",
        "audio_file": "",
        "images": [""],
        "coordinates": [
          4.09, 17.25
        ]
      },
      {
        "id" : 12,
        "name" : "Cenotaph for Newton",
        "author_sort_key": "boullee",
        "author" : "Etienne-Louis Boullée",
        "localization" : "Paris",
        "country_code" : "FR",
        "date" : "1784",
        "date_desc" : "",
        "diam_desc" : "",
        "diameter" : 150,
        "description": "",
        "subtitle": "",
        "audio_file": "",
        "images": [""],
        "coordinates": [
          3.27, 19.50
        ]
      },
      {
        "id" : 13,
        "name" : "A cosmopolitan's house",
        "author_sort_key": "vaudoyer",
        "author" : "Antoine Laurent Thomas Vaudoyer",
        "localization" : "Rome (conception)",
        "country_code" : "IT",
        "date" : "1784",
        "date_desc" : "",
        "diam_desc" : "",
        "diameter" : 28,
        "description": "",
        "subtitle": "",
        "audio_file": "",
        "images": [""],
        "coordinates": [
          4.80, 23.77
        ]
      },
      {
        "id" : 14,
        "name" : "Decadal temple",
        "author_sort_key": "durand",
        "author" : "JNL Durand, Jean-Thomas Thibault",
        "localization" : "Paris",
        "country_code" : "FR",
        "date" : "1793",
        "date_desc" : "1793, 1794",
        "diam_desc" : "70m & 90m",
        "diameter" : 70,
        "description": "",
        "subtitle": "",
        "audio_file": "",
        "images": [""],
        "coordinates": [
          4.47, 25.05
        ]
      },
      {
        "id" : 15,
        "name" : "Temple of the Earth",
        "author_sort_key": "lequeu",
        "author" : "Jean-Jacques Lequeu",
        "localization" : "Divers, France",
        "country_code" : "FR",
        "date" : "1794",
        "date_desc" : "",
        "diam_desc" : "?",
        "diameter" : -1,
        "description": "",
        "subtitle": "",
        "audio_file": "",
        "images": [""],
        "coordinates": [
          5.01, 26.64
        ]
      },
      {
        "id" : 16,
        "name" : "Temple to immortality",
        "author_sort_key": "sobre",
        "author" : "Jean-Nicolas Sobre",
        "localization" : "Paris",
        "country_code" : "FR",
        "date" : "1799",
        "date_desc" : "v. 1799",
        "diam_desc" : "",
        "diameter" : 80,
        "description": "",
        "subtitle": "",
        "audio_file": "",
        "images": [""],
        "coordinates": [
          4.32, 28.20
        ]
      },
      {
        "id" : 17,
        "name" : "Cemetery of the city of Chaux",
        "author_sort_key": "ledoux",
        "author" : "Claude Nicolas Ledoux",
        "localization" : "Arc-et-senans",
        "country_code" : "FR",
        "date" : "1800",
        "date_desc" : "v. 1800",
        "diam_desc" : "",
        "diameter" : 78,
        "description": "",
        "subtitle": "",
        "audio_file": "",
        "images": [""],
        "coordinates": [
          4.32, 29.27
        ]
      },
      {
        "id" : 19,
        "name" : "Cénotaphs for Newton ",
        "author_sort_key": "delespine",
        "author" : "Delespine, Gay, Labadye",
        "localization" : "Paris",
        "country_code" : "FR",
        "date" : "1785",
        "date_desc" : "1785-1800",
        "diam_desc" : "20-22m",
        "diameter" : 21,
        "description": "",
        "subtitle": "",
        "audio_file": "",
        "images": [""],
        "coordinates": [
          3.93, 26.21
        ]
      },
      {
        "id" : 18,
        "name" : "Planetarium",
        "author_sort_key": "jefferson",
        "author" : "Thomas Jefferson",
        "localization" : "Charlottesville",
        "country_code" : "US",
        "date" : "1821",
        "date_desc" : "1817-1826",
        "diam_desc" : "",
        "diameter" : 22.25,
        "description": "",
        "subtitle": "",
        "audio_file": "",
        "images": [""],
        "coordinates": [
          3.46, 24.41
        ]
      },
      {
        "id" : 20,
        "name" : "National Monument to Newton",
        "author_sort_key": "steele",
        "author" : "Thomas Ennis Steele",
        "localization" : "Londres",
        "country_code" : "GB",
        "date" : "1831",
        "date_desc" : "1829-1834",
        "diam_desc" : "",
        "diameter" : 12.2,
        "description": "",
        "subtitle": "",
        "audio_file": "",
        "images": [""],
        "coordinates": [
          3.93, 27.14
        ]
      },
      {
        "id" : 22,
        "name" : "Georama",
        "author_sort_key": "delanglard",
        "author" : "Charles-François-Paul Delanglard, Pierre-Magloire Châtelain",
        "localization" : "Paris, Londres",
        "country_code" : "FR, GB",
        "date" : "1827",
        "date_desc" : "1822-1833",
        "diam_desc" : "",
        "diameter" : 13,
        "description": "",
        "subtitle": "",
        "audio_file": "",
        "images": [""],
        "coordinates": [
          3.33, 29.56
        ]
      },
      {
        "id" : 21,
        "name" : "Georama",
        "author_sort_key": "guerin",
        "author" : "Guérin, Jodot, Hittorff, Louis Vivien",
        "localization" : "Paris, Londres",
        "country_code" : "FR, GB",
        "date" : "1847",
        "date_desc" : "1844-1849",
        "diam_desc" : "",
        "diameter" : 10,
        "description": "",
        "subtitle": "",
        "audio_file": "",
        "images": [""],
        "coordinates": [
          3.32, 28.27
        ]
      },
      {
        "id" : 23,
        "name" : "Model of the Earth",
        "author_sort_key": "wyld",
        "author" : "James Wyld, Edward Welch, Henry R. Abraham",
        "localization" : "Londres",
        "country_code" : "GB",
        "date" : "1857",
        "date_desc" : "1851-1862",
        "diam_desc" : "",
        "diameter" : 18.24,
        "description": "",
        "subtitle": "",
        "audio_file": "",
        "images": [""],
        "coordinates": [
          4.51, 34.98
        ]
      },
      {
        "id" : 24,
        "name" : "Géoplaste",
        "author_sort_key": "sanis",
        "author" : "Jean-Léon Sanis, Hector Horeau",
        "localization" : "Bois de Boulogne",
        "country_code" : "FR",
        "date" : "1858",
        "date_desc" : "v.1852-1863",
        "diam_desc" : "?",
        "diameter" : -1,
        "description": "",
        "subtitle": "",
        "audio_file": "",
        "images": [""],
        "coordinates": [
          4.87, 36.27
        ]
      },
      {
        "id" : 25,
        "name" : "Brick Moon",
        "author_sort_key": "hale",
        "author" : "Edward Everett Hale",
        "localization" : "Orbite terrestre",
        "country_code" : "XX",
        "date" : "1869",
        "date_desc" : "1869-1870",
        "diam_desc" : "",
        "diameter" : 61,
        "description": "",
        "subtitle": "",
        "audio_file": "",
        "images": [""],
        "coordinates": [
          4.91, 37.88
        ]
      },
      {
        "id" : 26,
        "name" : "Monument to Ortelius",
        "author_sort_key": "wauwermans",
        "author" : "Henri-Emmanuel Wauwermans",
        "localization" : "Anvers",
        "country_code" : "BE",
        "date" : "1877",
        "date_desc" : "",
        "diam_desc" : "",
        "diameter" : 25.46,
        "description": "",
        "subtitle": "",
        "audio_file": "",
        "images": [""],
        "coordinates": [
          4.91, 38.80
        ]
      },
      {
        "id" : 27,
        "name" : "Planetarium",
        "author_sort_key": "perini",
        "author" : "Napoleone Perini",
        "localization" : "Londres",
        "country_code" : "GB",
        "date" : "1879",
        "date_desc" : "",
        "diam_desc" : "",
        "diameter" : 4.25,
        "description": "",
        "subtitle": "",
        "audio_file": "",
        "images": [""],
        "coordinates": [
          4.61, 39.73
        ]
      },
      {
        "id" : 28,
        "name" : "Monumental terrestrial sphere",
        "author_sort_key": "filon",
        "author" : "François Filon, Alexandre Cordeau",
        "localization" : "Paris, New York",
        "country_code" : "FR, US",
        "date" : "1887",
        "date_desc" : "1887-1889",
        "diam_desc" : "",
        "diameter" : 12.73,
        "description": "",
        "subtitle": "",
        "audio_file": "",
        "images": [""],
        "coordinates": [
          3.76, 34.13
        ]
      },
      {
        "id" : 29,
        "name" : "Terrestrial globe on the millionth scale",
        "author_sort_key": "villard",
        "author" : "Villard & Cotard, A. Tissandier, T. Seyrig",
        "localization" : "Paris",
        "country_code" : "FR",
        "date" : "1888",
        "date_desc" : "1888-1889",
        "diam_desc" : "",
        "diameter" : 12.73,
        "description": "",
        "subtitle": "",
        "audio_file": "",
        "images": [""],
        "coordinates": [
          3.27, 34.98
        ]
      },
      {
        "id" : 30,
        "name" : "National Botanical Gardens",
        "author_sort_key": "knudson",
        "author" : "Adolphus Alvord Knudson",
        "localization" : "New York",
        "country_code" : "US",
        "date" : "1889",
        "date_desc" : "1889-1890",
        "diam_desc" : "",
        "diameter" : 25,
        "description": "",
        "subtitle": "",
        "audio_file": "",
        "images": [""],
        "coordinates": [
          3.83, 35.97
        ]
      },
      {
        "id" : 31,
        "index" : 1,
        "name" : "Memorial Tower",
        "author_sort_key": "burton",
        "author" : "Charles E. Burton",
        "localization" : "Chicago ",
        "country_code" : "US",
        "date" : "1890",
        "date_desc" : "",
        "diam_desc" : "",
        "diameter" : 122,
        "description": "",
        "subtitle": "",
        "audio_file": "",
        "images": [""],
        "coordinates": [
          3.85, 37.04
        ]
      },
      {
        "id" : 31,
        "index" : 2,
        "name" : "Solar system",
        "author_sort_key": "hosmer",
        "author" : "Harriet G.Hosmer",
        "localization" : "Chicago ",
        "country_code" : "US",
        "date" : "1889",
        "date_desc" : "",
        "diam_desc" : "?",
        "diameter" : -1,
        "description": "",
        "subtitle": "",
        "audio_file": "",
        "images": [""],
        "coordinates": [
          3.85, 37.04
        ]
      },
      {
        "id" : 31,
        "index" : 3,
        "name" : "World",
        "author_sort_key": "martin",
        "author" : "Louis H. Martin",
        "localization" : "Chicago ",
        "country_code" : "US",
        "date" : "1889",
        "date_desc" : "",
        "diam_desc" : "",
        "diameter" : 244,
        "description": "",
        "subtitle": "",
        "audio_file": "",
        "images": [""],
        "coordinates": [
          3.85, 37.04
        ]
      },
      {
        "id" : 33,
        "name" : "Coliseum and Tower ",
        "author_sort_key": "buffington",
        "author" : "Leroy S. Buffington, Harvey Ellis",
        "localization" : "Chicago",
        "country_code" : "US",
        "date" : "1890",
        "date_desc" : "1889-90, 1929",
        "diam_desc" : "?",
        "diameter" : -1,
        "description": "",
        "subtitle": "",
        "audio_file": "",
        "images": [""],
        "coordinates": [
          3.92, 39.73
        ]
      },
      {
        "id" : 32,
        "index" : 3,
        "name" : "Colossal Globe Crystal Palace",
        "author_sort_key": "langhammer",
        "author" : "Paul Langhammer",
        "localization" : "Chicago",
        "country_code" : "US",
        "date" : "1891",
        "date_desc" : "",
        "diam_desc" : "",
        "diameter" : 30.5,
        "description": "",
        "subtitle": "",
        "audio_file": "",
        "images": [""],
        "coordinates": [
          3.85, 38.37
        ]
      },
      {
        "id" : 32,
        "index" : 1,
        "name" : "Crystal Water Palace",
        "author_sort_key": "fischer",
        "author" : "Ernst Fischer, W. F. Smith, G. H. Hess",
        "localization" : "Chicago",
        "country_code" : "US",
        "date" : "1890",
        "date_desc" : "1890-1893",
        "diam_desc" : "",
        "diameter" : 76,
        "description": "",
        "subtitle": "",
        "audio_file": "",
        "images": [""],
        "coordinates": [
          3.85, 38.37
        ]
      },
      {
        "id" : 32,
        "index" : 2,
        "name" : "Columbus Dome",
        "author_sort_key": "hallock",
        "author" : "John K. Hallock, Cyrus F. Dean",
        "localization" : "Chicago",
        "country_code" : "US",
        "date" : "1890",
        "date_desc" : "1889-1890",
        "diam_desc" : "",
        "diameter" : 244,
        "description": "",
        "subtitle": "",
        "audio_file": "",
        "images": [""],
        "coordinates": [
          3.85, 38.37
        ]
      },
      {
        "id" : 35,
        "name" : "Freedom Raising the World",
        "author_sort_key": "ingolsby",
        "author" : "Frank S.Ingolsby Frank S.Ingoldsby",
        "localization" : "Chicago, St Louis",
        "country_code" : "US",
        "date" : "1891",
        "date_desc" : "",
        "diam_desc" : "",
        "diameter" : 42.7,
        "description": "",
        "subtitle": "",
        "audio_file": "",
        "images": [""],
        "coordinates": [
          4.61, 41.02
        ]
      },
      {
        "id" : 34,
        "name" : "Monumento colosal en memoria de Cristóbal Colón",
        "author_sort_key": "palacio",
        "author" : "Alberto de Palacio",
        "localization" : "Chicago, Madrid, Paris",
        "country_code" : "US, ES, FR",
        "date" : "1890",
        "date_desc" : "",
        "diam_desc" : "",
        "diameter" : 300,
        "description": "",
        "subtitle": "",
        "audio_file": "",
        "images": [""],
        "coordinates": [
          3.91, 40.93
        ]
      },
      {
        "id" : 36,
        "index" : 1,
        "name" : "Great Terrestrial Globe",
        "author_sort_key": "johnston",
        "author" : "Thomas Ruddiman Johnston",
        "localization" : "Londres",
        "country_code" : "GB",
        "date" : "1895",
        "date_desc" : "1895-1896",
        "diam_desc" : "",
        "diameter" : 25.5,
        "description": "",
        "subtitle": "",
        "audio_file": "",
        "images": [""],
        "coordinates": [
          4.94, 46.42
        ]
      },
      {
        "id" : 36,
        "index" : 2,
        "name" : "Great Hollow Terrestrial Globe",
        "author_sort_key": "johnston",
        "author" : "Thomas Ruddiman Johnston",
        "localization" : "Londres",
        "country_code" : "GB",
        "date" : "1895",
        "date_desc" : "1895-1896",
        "diam_desc" : "",
        "diameter" : 51,
        "description": "",
        "subtitle": "",
        "audio_file": "",
        "images": [""],
        "coordinates": [
          4.94, 46.42
        ]
      },
      {
        "id" : 37,
        "name" : "French universal umbrella",
        "author_sort_key": "bourdin",
        "author" : "Léopold Bourdin",
        "localization" : "Paris, Marseille",
        "country_code" : "FR",
        "date" : "1895",
        "date_desc" : "",
        "diam_desc" : "",
        "diameter" : 38.2,
        "description": "",
        "subtitle": "",
        "audio_file": "",
        "images": [""],
        "coordinates": [
          4.95, 47.56
        ]
      },
      {
        "id" : 38,
        "name" : "Around the world in 80 minutes",
        "author_sort_key": "borgel",
        "author" : "François Borgel-Court, Alexandre Gavard",
        "localization" : "Paris",
        "country_code" : "FR",
        "date" : "1896",
        "date_desc" : "1895-1897",
        "diam_desc" : "",
        "diameter" : 150,
        "description": "",
        "subtitle": "",
        "audio_file": "",
        "images": [""],
        "coordinates": [
          4.91, 48.73
        ]
      },
      {
        "id" : 39,
        "name" : "Pavilion of Man",
        "author_sort_key": "mucha",
        "author" : "Alfons Mucha, James Vibert",
        "localization" : "Paris",
        "country_code" : "FR",
        "date" : "1897",
        "date_desc" : "",
        "diam_desc" : "?",
        "diameter" : -1,
        "description": "",
        "subtitle": "",
        "audio_file": "",
        "images": [""],
        "coordinates": [
          4.25, 48.52
        ]
      },
      {
        "id" : 40,
        "name" : "Terrestrial Globe",
        "author_sort_key": "reclus",
        "author" : "Elisée Reclus, Louis Bonnier",
        "localization" : "Paris (Trocadéro)",
        "country_code" : "FR",
        "date" : "1896",
        "date_desc" : "1895-1898",
        "diam_desc" : "",
        "diameter" : 25.5,
        "description": "",
        "subtitle": "",
        "audio_file": "",
        "images": [""],
        "coordinates": [
          2.86, 44.83
        ]
      },
      {
        "id" : 41,
        "name" : "Celestial Globe",
        "author_sort_key": "galeron",
        "author" : "Albert Galeron",
        "localization" : "Paris",
        "country_code" : "FR",
        "date" : "1897",
        "date_desc" : "1895-1900",
        "diam_desc" : "",
        "diameter" : 41,
        "description": "",
        "subtitle": "",
        "audio_file": "",
        "images": [""],
        "coordinates": [
          2.86, 47.40
        ]
      },
      {
        "id" : 42,
        "name" : "Exhibition structure",
        "author_sort_key": "lyouns",
        "author" : "Herbert F.W. Lyouns",
        "localization" : "Pas de lieu (brevet)",
        "country_code" : "?",
        "date" : "1899",
        "date_desc" : "",
        "diam_desc" : "",
        "diameter" : 183,
        "description": "",
        "subtitle": "",
        "audio_file": "",
        "images": [""],
        "coordinates": [
          4.96, 49.93
        ]
      },
      {
        "id" : 42,
        "name" : "Structure for Educational and Recreative Purposes ",
        "author_sort_key": "pridmore",
        "author" : "Frank A. Pridmore",
        "localization" : "Pas de lieu (brevet)",
        "country_code" : "?",
        "date" : "1913",
        "date_desc" : "",
        "diam_desc" : "67 ou 100m",
        "diameter" : 67,
        "description": "",
        "subtitle": "",
        "audio_file": "",
        "images": [""],
        "coordinates": [
          4.96, 49.93
        ]
      },
      {
        "id" : 43,
        "name" : "National Institute of Geography",
        "author_sort_key": "geddes",
        "author" : "Patrick Geddes, Elisée Reclus, Albert Galeron, Franz Schrader",
        "localization" : "Edimbourg",
        "country_code" : "GB",
        "date" : "1901",
        "date_desc" : "",
        "diam_desc" : "20m chaque",
        "diameter" : 20,
        "description": "",
        "subtitle": "",
        "audio_file": "",
        "images": [""],
        "coordinates": [
          4.96, 51.05
        ]
      },
      {
        "id" : 44,
        "name" : "Aerial Globe and Globe Tower",
        "author_sort_key": "friede",
        "author" : "Samuel M. Friede, Alfred M. Borden",
        "localization" : "St Louis, Coney Island",
        "country_code" : "US",
        "date" : "1903",
        "date_desc" : "1899-1907",
        "diam_desc" : "",
        "diameter" : 106,
        "description": "",
        "subtitle": "",
        "audio_file": "",
        "images": [""],
        "coordinates": [
          4.95, 52.35
        ]
      },
      {
        "id" : 45,
        "name" : "Temple for the Mysterium artwork",
        "author_sort_key": "scriabine",
        "author" : "Alexandre Scriabine",
        "localization" : "Himalaya, Adyar",
        "country_code" : "IN, NP",
        "date" : "1909",
        "date_desc" : "1903-1915",
        "diam_desc" : "?",
        "diameter" : -1,
        "description": "",
        "subtitle": "",
        "audio_file": "",
        "images": [""],
        "coordinates": [
          4.26, 49.71
        ]
      },
      {
        "id" : 46,
        "name" : "Magic sphere",
        "author_sort_key": "maxim",
        "author" : "Hiram S.Maxim",
        "localization" : "Londres, Coney Island",
        "country_code" : "GB, US",
        "date" : "1906",
        "date_desc" : "1904-1907",
        "diam_desc" : "",
        "diameter" : 9.1,
        "description": "",
        "subtitle": "",
        "audio_file": "",
        "images": [""],
        "coordinates": [
          4.25, 50.87
        ]
      },
      {
        "id" : 47,
        "name" : "Creation",
        "author_sort_key": "roltair",
        "author" : "Henry Roltair",
        "localization" : "St Louis, Coney Island",
        "country_code" : "US",
        "date" : "1908",
        "date_desc" : "1904-1911",
        "diam_desc" : "",
        "diameter" : 45.7,
        "description": "",
        "subtitle": "",
        "audio_file": "",
        "images": [""],
        "coordinates": [
          3.82, 52.11
        ]
      },
      {
        "id" : 48,
        "name" : "Atwood Celestial Sphere",
        "author_sort_key": "atwood",
        "author" : "Wallace W. Atwood, La Verne W. Noyes",
        "localization" : "Chicago",
        "country_code" : "US",
        "date" : "1913",
        "date_desc" : "",
        "diam_desc" : "",
        "diameter" : 4.6,
        "description": "",
        "subtitle": "",
        "audio_file": "",
        "images": [""],
        "coordinates": [
          4.02, 53.08
        ]
      },
      {
        "id" : 49,
        "name" : "Globe",
        "author_sort_key": "fulton",
        "author" : "Fitch B.Fulton, Frank A. Wadleigh",
        "localization" : "Transportation palace, SF",
        "country_code" : "US",
        "date" : "1915",
        "date_desc" : "",
        "diam_desc" : "",
        "diameter" : 15.8,
        "description": "",
        "subtitle": "",
        "audio_file": "",
        "images": [""],
        "coordinates": [
          4.30, 57.32
        ]
      },
      {
        "id" : 50,
        "name" : "Periscopic Theatre",
        "author_sort_key": "jones",
        "author" : "Loyd A.Jones",
        "localization" : "Rochester (Kodak Labs)",
        "country_code" : "US",
        "date" : "1918",
        "date_desc" : "",
        "diam_desc" : "",
        "diameter" : 4.3,
        "description": "",
        "subtitle": "",
        "audio_file": "",
        "images": [""],
        "coordinates": [
          4.61, 58.21
        ]
      },
      {
        "id" : 51,
        "name" : "Karussell, Domstern, Sterne im Reigen",
        "author_sort_key": "taut",
        "author" : "Bruno Taut",
        "localization" : "Univers",
        "country_code" : "XX",
        "date" : "1920",
        "date_desc" : "1918-1920",
        "diam_desc" : "?",
        "diameter" : -1,
        "description": "",
        "subtitle": "",
        "audio_file": "",
        "images": [""],
        "coordinates": [
          4.26, 59.48
        ]
      },
      {
        "id" : 52,
        "name" : "Sternhaus",
        "author_sort_key": "krayl",
        "author" : "Carl Krayl",
        "localization" : "Univers",
        "country_code" : "XX",
        "date" : "1920",
        "date_desc" : "v. 1920",
        "diam_desc" : "?",
        "diameter" : -1,
        "description": "",
        "subtitle": "",
        "audio_file": "",
        "images": [""],
        "coordinates": [
          3.62, 59.36
        ]
      },
      {
        "id" : 53,
        "name" : "Freitragende Kuppel",
        "author_sort_key": "hablik",
        "author" : "Wenzel Hablik",
        "localization" : "Montagnes, océans",
        "country_code" : "?",
        "date" : "1921",
        "date_desc" : "v. 1920",
        "diam_desc" : "30-1000m",
        "diameter" : 650,
        "description": "",
        "subtitle": "",
        "audio_file": "",
        "images": [""],
        "coordinates": [
          3.62, 58.21
        ]
      },
      {
        "id" : 54,
        "name" : "Forecast Factory",
        "author_sort_key": "richardson",
        "author" : "Lewis F.Richardson",
        "localization" : "Lieu indéterminé",
        "country_code" : "?",
        "date" : "1922",
        "date_desc" : "",
        "diam_desc" : "?",
        "diameter" : -1,
        "description": "",
        "subtitle": "",
        "audio_file": "",
        "images": [""],
        "coordinates": [
          3.62, 60.56
        ]
      },
      {
        "id" : 55,
        "name" : "Planetarium 1",
        "author_sort_key": "bauersfeld",
        "author" : "Walther Bauersfeld (Zeiss), Oskar von Miller",
        "localization" : "Iéna",
        "country_code" : "DE",
        "date" : "1923",
        "date_desc" : "",
        "diam_desc" : "",
        "diameter" : 16,
        "description": "",
        "subtitle": "",
        "audio_file": "",
        "images": [""],
        "coordinates": [
          4.36, 63.89
        ]
      },
      {
        "id" : 55,
        "name" : "Planetarium 2",
        "author_sort_key": "bauersfeld",
        "author" : "Walther Bauersfeld (Zeiss), Oskar von Miller",
        "localization" : "Munich",
        "country_code" : "DE",
        "date" : "1923",
        "date_desc" : "",
        "diam_desc" : "",
        "diameter" : 9.8,
        "description": "",
        "subtitle": "",
        "audio_file": "",
        "images": [""],
        "coordinates": [
          4.36, 63.89
        ]
      },
      {
        "id" : 56,
        "name" : "Babson Globe & Giant Relief Map",
        "author_sort_key": "babson",
        "author" : "Roger Babson, G. Curtis, E. Nichols, Wallace W. Atwood",
        "localization" : "Wellesley, MA",
        "country_code" : "US",
        "date" : "1939",
        "date_desc" : "1923-1955",
        "diam_desc" : "",
        "diameter" : 8.5,
        "description": "",
        "subtitle": "",
        "audio_file": "",
        "images": [""],
        "coordinates": [
          3.27, 63.89
        ]
      },
      {
        "id" : 57,
        "name" : "Luminous monument to Lenin, monument of the Revolution",
        "author_sort_key": "gidoni",
        "author" : "Grigori Gidoni, Naum Mogilevsky",
        "localization" : "Leningrad",
        "country_code" : "RU",
        "date" : "1926",
        "date_desc" : "1926-1927",
        "diam_desc" : "?",
        "diameter" : -1,
        "description": "",
        "subtitle": "",
        "audio_file": "",
        "images": [""],
        "coordinates": [
          3.32, 65.90
        ]
      },
      {
        "id" : 58,
        "name" : "La Sfera di Platino ",
        "author_sort_key": "loduca",
        "author" : "Giuseppe Lo Duca",
        "localization" : "Terre",
        "country_code" : "YY",
        "date" : "1927",
        "date_desc" : "",
        "diam_desc" : "La terre",
        "diameter" : 12756000,
        "description": "",
        "subtitle": "",
        "audio_file": "",
        "images": [""],
        "coordinates": [
          4.56, 70.89
        ]
      },
      {
        "id" : 59,
        "name" : "Kugelhaus",
        "author_sort_key": "birkenholz",
        "author" : "Peter Birkenholz",
        "localization" : "Dresde, Leipzig",
        "country_code" : "DE",
        "date" : "1927",
        "date_desc" : "1927-1938",
        "diam_desc" : "",
        "diameter" : 24,
        "description": "",
        "subtitle": "",
        "audio_file": "",
        "images": [""],
        "coordinates": [
          4.90, 73.30
        ]
      },
      {
        "id" : 60,
        "name" : "Monumental lighthouse in memory of Christophe Colomb",
        "author_sort_key": "-",
        "author" : "Concepteurs divers",
        "localization" : "Saint-Domingue",
        "country_code" : "DO",
        "date" : "1929",
        "date_desc" : "",
        "diam_desc" : "variés",
        "diameter" : 0,
        "description": "",
        "subtitle": "",
        "audio_file": "",
        "images": [""],
        "coordinates": [
          4.74, 75.19
        ]
      },
      {
        "id" : 62,
        "name" : "Mapparium",
        "author_sort_key": "churchill",
        "author" : "Chester Lindsay Churchill",
        "localization" : "Boston",
        "country_code" : "US",
        "date" : "1932",
        "date_desc" : "1930-1935",
        "diam_desc" : "",
        "diameter" : 9.1,
        "description": "",
        "subtitle": "",
        "audio_file": "",
        "images": [""],
        "coordinates": [
          3.85, 71.61
        ]
      },
      {
        "id" : 61,
        "name" : "Cosmosarium",
        "author_sort_key": "morse",
        "author" : "Robert V. Morse, Peter J.Bitterman",
        "localization" : "New York",
        "country_code" : "US",
        "date" : "1935",
        "date_desc" : "1935-1936",
        "diam_desc" : "",
        "diameter" : 30.5,
        "description": "",
        "subtitle": "",
        "audio_file": "",
        "images": [""],
        "coordinates": [
          4.55, 76.37
        ]
      },
      {
        "id" : 63,
        "name" : "Trylon and Perisphere",
        "author_sort_key": "harrison",
        "author" : "Wallace Harrison, J.A. Fouilhoux, H. Dreyfuss, W.G. Still",
        "localization" : "New York",
        "country_code" : "US",
        "date" : "1938",
        "date_desc" : "1937-1940",
        "diam_desc" : "",
        "diameter" : 55,
        "description": "",
        "subtitle": "",
        "audio_file": "",
        "images": [""],
        "coordinates": [
          3.85, 73.40
        ]
      },
      {
        "id" : 64,
        "name" : "City of the Sun",
        "author_sort_key": "leonidov",
        "author" : "Ivan Leonidov",
        "localization" : "Univers",
        "country_code" : "?",
        "date" : "1951",
        "date_desc" : "1943-1959",
        "diam_desc" : "?",
        "diameter" : -1,
        "description": "",
        "subtitle": "",
        "audio_file": "",
        "images": [""],
        "coordinates": [
          3.83, 75.22
        ]
      },
      {
        "id" : 65,
        "name" : "Space Flyer, 20th Century Globe, Cosmic-Atomic Power Plant",
        "author_sort_key": "gernsback",
        "author" : "Hugo Gernsback",
        "localization" : "Espace",
        "country_code" : "XX",
        "date" : "1915",
        "date_desc" : "1911-1921",
        "diam_desc" : "",
        "diameter" : 18.3,
        "description": "",
        "subtitle": "",
        "audio_file": "",
        "images": [""],
        "coordinates": [
          3.46, 76.40
        ]
      },
      {
        "id" : 66,
        "name" : "Pentadome",
        "author_sort_key": "bird",
        "author" : "Walter Bird, Kenneth E. Joy, Walter Bird",
        "localization" : "Redstone arsenal",
        "country_code" : "US",
        "date" : "1958",
        "date_desc" : "1958-1959",
        "diam_desc" : "",
        "diameter" : 45.7,
        "description": "",
        "subtitle": "",
        "audio_file": "",
        "images": [""],
        "coordinates": [
          4.05, 77.33
        ]
      },
      {
        "id" : 67,
        "name" : "Terranische Raumschiffe and Hauptquartier",
        "author_sort_key": "scheer",
        "author" : "Karl-Herbert Scheer, Clark Darlton (Walter Ernsting)",
        "localization" : "Espace",
        "country_code" : "XX",
        "date" : "1961",
        "date_desc" : "",
        "diam_desc" : "1 à 62km",
        "diameter" : 4200,
        "description": "",
        "subtitle": "",
        "audio_file": "",
        "images": [""],
        "coordinates": [
          4.72, 79.89
        ]
      },
      {
        "id" : 68,
        "name" : "Lunar Orbit and Landing Approach Simulator",
        "author_sort_key": "nasa",
        "author" : "Nasa",
        "localization" : "Langley",
        "country_code" : "US",
        "date" : "1964",
        "date_desc" : "1964-1978",
        "diam_desc" : "",
        "diameter" : 6.1,
        "description": "",
        "subtitle": "",
        "audio_file": "",
        "images": [""],
        "coordinates": [
          4.52, 81.03
        ]
      },
      {
        "id" : 69,
        "name" : "Synchronized Space : Universal House",
        "author_sort_key": "abraham",
        "author" : "Raimund Abraham",
        "localization" : "Lieu indéterminé",
        "country_code" : "?",
        "date" : "1967",
        "date_desc" : "",
        "diam_desc" : "?",
        "diameter" : -1,
        "description": "",
        "subtitle": "",
        "audio_file": "",
        "images": [""],
        "coordinates": [
          3.62, 79.89
        ]
      },
      {
        "id" : 70,
        "name" : "US Pavilion",
        "author_sort_key": "chermayeff",
        "author" : "Chermayeff, Buckminster Fuller, Shoji Sadao, Rankine",
        "localization" : "Montréal",
        "country_code" : "CA",
        "date" : "1967",
        "date_desc" : "",
        "diam_desc" : "",
        "diameter" : 76,
        "description": "",
        "subtitle": "",
        "audio_file": "",
        "images": [""],
        "coordinates": [
          4.09, 81.95
        ]
      },
      {
        "id" : 71,
        "name" : "Kugelauditorium",
        "author_sort_key": "bornemann",
        "author" : "Bornemann, Stockhausen, Winckel, Mengeringhausen",
        "localization" : "Osaka",
        "country_code" : "JP",
        "date" : "1969",
        "date_desc" : "1968-1970",
        "diam_desc" : "",
        "diameter" : 28,
        "description": "",
        "subtitle": "",
        "audio_file": "",
        "images": [""],
        "coordinates": [
          4.30, 86.30
        ]
      },
      {
        "id" : 72,
        "name" : "Atomic City",
        "author_sort_key": "newman",
        "author" : "Oscar Newman",
        "localization" : "Manhattan",
        "country_code" : "US",
        "date" : "1969",
        "date_desc" : "",
        "diam_desc" : "?",
        "diameter" : -1,
        "description": "",
        "subtitle": "",
        "audio_file": "",
        "images": [""],
        "coordinates": [
          4.99, 87.80
        ]
      },
      {
        "id" : 73,
        "name" : "Ringworld",
        "author_sort_key": "niven",
        "author" : "Larry Niven",
        "localization" : "Espace",
        "country_code" : "XX",
        "date" : "1970",
        "date_desc" : "",
        "diam_desc" : "Terre-soleil",
        "diameter" : 308000000000,
        "description": "",
        "subtitle": "",
        "audio_file": "",
        "images": [""],
        "coordinates": [
          5.03, 88.92
        ]
      },
      {
        "id" : 74,
        "name" : "Architettura Interplanetaria",
        "author_sort_key": "superstudio",
        "author" : "Superstudio",
        "localization" : "Espace",
        "country_code" : "XX",
        "date" : "1971",
        "date_desc" : "1970-1972",
        "diam_desc" : "Système solaire",
        "diameter" : 9000000000000,
        "description": "",
        "subtitle": "",
        "audio_file": "",
        "images": [""],
        "coordinates": [
          3.28, 86.88
        ]
      },
      {
        "id" : 75,
        "name" : "Revitalized Architecture ",
        "author_sort_key": "aida",
        "author" : "Takefumi Aida",
        "localization" : "Tokyo",
        "country_code" : "JP",
        "date" : "1971",
        "date_desc" : "",
        "diam_desc" : "",
        "diameter" : 80,
        "description": "",
        "subtitle": "",
        "audio_file": "",
        "images": [""],
        "coordinates": [
          3.92, 88.22
        ]
      },
      {
        "id" : 76,
        "name" : "Matrimandir",
        "author_sort_key": "alfassa",
        "author" : "Mira Mirra Alfassa, Roger Anger, Piero Cicionesi",
        "localization" : "Auroville",
        "country_code" : "IN",
        "date" : "1971",
        "date_desc" : "1971-2008",
        "diam_desc" : "",
        "diameter" : 36,
        "description": "",
        "subtitle": "",
        "audio_file": "",
        "images": [""],
        "coordinates": [
          3.91, 89.56
        ]
      },
      {
        "id" : 79,
        "name" : "Bernal Sphere « Island One »",
        "author_sort_key": "oneil",
        "author" : "Gerard K. O’Neill",
        "localization" : "Espace",
        "country_code" : "XX",
        "date" : "1975",
        "date_desc" : "v. 1974-1976",
        "diam_desc" : "",
        "diameter" : 460,
        "description": "",
        "subtitle": "",
        "audio_file": "",
        "images": [""],
        "coordinates": [
          5.01, 93.11
        ]
      },
      {
        "id" : 78,
        "name" : "Roden Crater",
        "author_sort_key": "turrel",
        "author" : "James Turrel",
        "localization" : "Painted desert, AZ",
        "country_code" : "US",
        "date" : "1976",
        "date_desc" : "1974…",
        "diam_desc" : "variés",
        "diameter" : 0,
        "description": "",
        "subtitle": "",
        "audio_file": "",
        "images": [""],
        "coordinates": [
          8.81, 94.10
        ]
      },
      {
        "id" : 77,
        "name" : "Death Star",
        "author_sort_key": "lucas",
        "author" : "George Lucas, Ralph McQuarrie, Autres auteurs",
        "localization" : "Espace",
        "country_code" : "XX",
        "date" : "1977",
        "date_desc" : "1977…",
        "diam_desc" : "120-160km",
        "diameter" : 140000,
        "description": "",
        "subtitle": "",
        "audio_file": "",
        "images": [""],
        "coordinates": [
          4.72, 92.14
        ]
      },
      {
        "id" : 80,
        "name" : "Epicyclarium",
        "author_sort_key": "woods",
        "author" : "Lebbeus Woods",
        "localization" : "Lieu indéterminé",
        "country_code" : "?",
        "date" : "1984",
        "date_desc" : "",
        "diam_desc" : "?",
        "diameter" : -1,
        "description": "",
        "subtitle": "",
        "audio_file": "",
        "images": [""],
        "coordinates": [
          5.01, 94.27
        ]
      },
      {
        "id" : 81,
        "name" : "Ericsson Globe",
        "author_sort_key": "adamson",
        "author" : "Adamson, Berg, Vretblad, Wycichowski",
        "localization" : "Stockholm",
        "country_code" : "SE",
        "date" : "1988",
        "date_desc" : "1985-1989",
        "diam_desc" : "",
        "diameter" : 110,
        "description": "",
        "subtitle": "",
        "audio_file": "",
        "images": [""],
        "coordinates": [
          3.71, 92.14
        ]
      },
      {
        "id" : 82,
        "name" : "Esfera Armilar",
        "author_sort_key": "ordonez",
        "author" : "José Antonio Fernández Ordóñez, Rafael Trénor y Suárez de Lezo",
        "localization" : "Séville, Madrid…",
        "country_code" : "ES",
        "date" : "1991",
        "date_desc" : "1986-2004",
        "diam_desc" : "",
        "diameter" : 80,
        "description": "",
        "subtitle": "",
        "audio_file": "",
        "images": [""],
        "coordinates": [
          8.82, 91.20
        ]
      },
      {
        "id" : 83,
        "name" : "Space for peace",
        "author_sort_key": "soleri",
        "author" : "Paolo Soleri",
        "localization" : "Espace",
        "country_code" : "XX",
        "date" : "1984",
        "date_desc" : "1984-1987",
        "diam_desc" : "?",
        "diameter" : -1,
        "description": "",
        "subtitle": "",
        "audio_file": "",
        "images": [""],
        "coordinates": [
          3.29, 93.06
        ]
      },
      {
        "id" : 84,
        "name" : "Mappemondo della Pace",
        "author_sort_key": "bartolucci",
        "author" : "Orfeo Bartolucci",
        "localization" : "Colombara di Apecchio",
        "country_code" : "IT",
        "date" : "1988",
        "date_desc" : "",
        "diam_desc" : "",
        "diameter" : 10,
        "description": "",
        "subtitle": "",
        "audio_file": "",
        "images": [""],
        "coordinates": [
          3.92, 94.24
        ]
      },
      {
        "id" : 85,
        "name" : "Soul’s Cycle",
        "author_sort_key": "bunschoten",
        "author" : "Raoul Bunschoten",
        "localization" : "Fort Asperen",
        "country_code" : "NL",
        "date" : "1989",
        "date_desc" : "1989",
        "diam_desc" : "qq. cm à 4m",
        "diameter" : 0.8,
        "description": "",
        "subtitle": "",
        "audio_file": "",
        "images": [""],
        "coordinates": [
          8.81, 88.12
        ]
      },
      {
        "id" : 86,
        "name" : "Arceon, project for Alien 3",
        "author_sort_key": "ward",
        "author" : "Vincent Ward",
        "localization" : "Espace",
        "country_code" : "XX",
        "date" : "1989",
        "date_desc" : "1989-1990",
        "diam_desc" : "",
        "diameter" : 1609,
        "description": "",
        "subtitle": "",
        "audio_file": "",
        "images": [""],
        "coordinates": [
          5.03, 95.53
        ]
      },
      {
        "id" : 87,
        "name" : "Globus Cassus",
        "author_sort_key": "waldvogel",
        "author" : "Christian Waldvogel",
        "localization" : "Terre",
        "country_code" : "XX",
        "date" : "2003",
        "date_desc" : "2002-2009",
        "diam_desc" : "85 000km",
        "diameter" : 85000000,
        "description": "",
        "subtitle": "",
        "audio_file": "",
        "images": [""],
        "coordinates": [
          8.82, 85.04
        ]
      },
      {
        "id" : 88,
        "name" : "Longitude Dial",
        "author_sort_key": "andrewes",
        "author" : "William Andrewes",
        "localization" : "Chilpancigo",
        "country_code" : "MX",
        "date" : "2002",
        "date_desc" : "2002…",
        "diam_desc" : "",
        "diameter" : 15.09,
        "description": "",
        "subtitle": "",
        "audio_file": "",
        "images": [""],
        "coordinates": [
          8.81, 82.06
        ]
      },
      {
        "id" : 89,
        "name" : "Convention and Exhibition Center",
        "author_sort_key": "koolhaas",
        "author" : "Rem Koolhaas, Reinier de Graaf",
        "localization" : "Ras al Khaimah",
        "country_code" : "AE",
        "date" : "2006",
        "date_desc" : "",
        "diam_desc" : "",
        "diameter" : 200,
        "description": "",
        "subtitle": "",
        "audio_file": "",
        "images": [""],
        "coordinates": [
          3.93, 95.42
        ]
      },
      {
        "id" : 90,
        "name" : "Great Globe Project",
        "author_sort_key": "beaulieu",
        "author" : "Bryan Beaulieu",
        "localization" : "Sonora Desert, AZ",
        "country_code" : "US",
        "date" : "2015",
        "date_desc" : "1993…",
        "diam_desc" : "",
        "diameter" : 128,
        "description": "",
        "subtitle": "",
        "audio_file": "",
        "images": [""],
        "coordinates": [
          8.81, 75.88
        ]
      }
    ],

    "tables": [
      {
        "id": 1,
        "title": "Introduction",
        "subtitle": "Ephemeris and Atlas",
        "audio_file": "Module-01.mp3",
        "coordinates": [4.66, 2.65]
      },
      {
        "id": 2,
        "title": "Listening point #1",
        "subtitle": "Categories of the world",
        "audio_file": "Module-02.mp3",
        "coordinates": [4.78, 14.40]
      },
      {
        "id": 3,
        "title": "Listening point #2",
        "subtitle": "Roundness of the sky and the earth",
        "audio_file": "Module-03.mp3",
        "coordinates": [3.11, 15.89]
      },
      {
        "id": 4,
        "title": "Listening point #3",
        "subtitle": "The world and its models",
        "audio_file": "Module-04.mp3",
        "coordinates":[4.84, 31.13]
      },
      {
        "id": 5,
        "title": "Listening point #4",
        "subtitle": "Absorbing the world",
        "audio_file": "Module-05.mp3",
        "coordinates":  [3.05, 32.88]
      },
      {
        "id": 6,
        "title": "Listening point #5",
        "subtitle": "Rules of worldmaking",
        "audio_file": "Module-06.mp3",
        "coordinates": [2.99, 42.59]
      },
      {
        "id": 7,
        "title": "Listening point #6",
        "subtitle": "Functions of the globe",
        "audio_file": "Module-07.mp3",
        "coordinates": [4.84, 44.32]
      },
      {
        "id": 8,
        "title": "Listening point #7",
        "subtitle": "Epitomizing light",
        "audio_file": "Module-08.mp3",
        "coordinates": [4.94, 54.40]
      },
      {
        "id": 9,
        "title": "Listening point #8",
        "subtitle": "Globe Theatres",
        "audio_file": "Module-09.mp3",
        "coordinates": [3.10, 56.17]
      },
      {
        "id": 10,
        "title": "Listening point #9",
        "subtitle": "Global work of art",
        "audio_file": "Module-10.mp3",
        "coordinates": [4.50, 67.65]
      },
      {
        "id": 11,
        "title": "Listening point #10",
        "subtitle": "Geostrategic effects",
        "audio_file": "Module-11.mp3",
        "coordinates": [3.19, 69.44]
      },
      {
        "id": 12,
        "title": "Listening point #11",
        "subtitle": "The perfect shape and the fatality of gravity",
        "audio_file": "Module-12.mp3",
        "coordinates": [4.91, 83.27]
      },
      {
        "id": 13,
        "title": "Listening point #12",
        "subtitle": "Building the center",
        "audio_file": "Module-13.mp3",
        "coordinates": [3.24, 85.05]
      },
      {
        "id": 14,
        "title": "Listening point #13",
        "subtitle": "A geometry of void and full spaces",
        "audio_file": "Module-14.mp3",
        "coordinates": [4.25, 96.92]
      }
    ]
}
